[
  {
    "id": 1,
    "site": "Drava River Monitoring Station",
    "is_demo_site": 1,
    "created_at": 1710432000,
    "updated_at": 1710432000,
    "water_body_type": "River",
    "water_body_name": "Drava River",
    "active": 1,
    "deleted": 0,
    "location": "Slovenia",
    "main_river": "Drava",
    "continent_id": 1,
    "country_id": 191,
    "city_id": 1001,
    "site_name": "Drava - Domica Station",
    "timezone": "UTC+1",
    "start_latitude": "46.137300",
    "end_latitude": "46.141200",
    "start_longitude": "14.596100",
    "end_longitude": "14.602100",
    "survey_answer": null,
    "custom_field_id": null,
    "external": 0
  },
  {
    "id": 2,
    "site": "Po River Delta Research Site",
    "is_demo_site": 1,
    "created_at": 1710518400,
    "updated_at": 1710518400,
    "water_body_type": "River",
    "water_body_name": "Po River",
    "active": 1,
    "deleted": 0,
    "location": "Italy",
    "main_river": "Po",
    "continent_id": 1,
    "country_id": 107,
    "city_id": 2001,
    "site_name": "Po River - Polesine Station",
    "timezone": "UTC+1",
    "start_latitude": "45.034800",
    "end_latitude": "45.041200",
    "start_longitude": "12.173400",
    "end_longitude": "12.185600",
    "survey_answer": null,
    "custom_field_id": null,
    "external": 0
  },
  {
    "id": 3,
    "site": "Douro River Estuary",
    "is_demo_site": 1,
    "created_at": 1710604800,
    "updated_at": 1710604800,
    "water_body_type": "Estuary",
    "water_body_name": "Douro River",
    "active": 1,
    "deleted": 0,
    "location": "Portugal",
    "main_river": "Douro",
    "continent_id": 1,
    "country_id": 172,
    "city_id": 3001,
    "site_name": "Douro - Porto Estuary",
    "timezone": "UTC",
    "start_latitude": "41.157900",
    "end_latitude": "41.164500",
    "start_longitude": "-8.629100",
    "end_longitude": "-8.612300",
    "survey_answer": null,
    "custom_field_id": null,
    "external": 0
  },
  {
    "id": 4,
    "site": "Danube River Vienna Reach",
    "is_demo_site": 1,
    "created_at": 1710691200,
    "updated_at": 1710691200,
    "water_body_type": "River",
    "water_body_name": "Danube River",
    "active": 1,
    "deleted": 0,
    "location": "Austria",
    "main_river": "Danube",
    "continent_id": 1,
    "country_id": 14,
    "city_id": 4001,
    "site_name": "Danube - Vienna Station",
    "timezone": "UTC+1",
    "start_latitude": "48.208200",
    "end_latitude": "48.214500",
    "start_longitude": "16.373800",
    "end_longitude": "16.389100",
    "survey_answer": null,
    "custom_field_id": null,
    "external": 0
  }
]
