[
  {
    "id": 1,
    "site": "Drava River Monitoring Station",
    "is_demo_site": 1,
    "created_at": 1710432000,
    "updated_at": 1710432000,
    "water_body_type": "River",
    "water_body_name": "Drava River",
    "active": 1,
    "deleted": 0,
    "location": "Slovenia",
    "main_river": "Drava",
    "continent_id": 1,
    "country_id": 191,
    "city_id": 1001,
    "site_name": "Drava - Domica Station",
    "timezone": "UTC+1",
    "start_latitude": "46.137300",
    "end_latitude": "46.141200",
    "start_longitude": "14.596100",
    "end_longitude": "14.602100",
    "survey_answer": null,
    "custom_field_id": null,
    "external": 0
  },
  {
    "id": 2,
    "site": "Po River Delta Research Site",
    "is_demo_site": 1,
    "created_at": 1710518400,
    "updated_at": 1710518400,
    "water_body_type": "River",
    "water_body_name": "Po River",
    "active": 1,
    "deleted": 0,
    "location": "Italy",
    "main_river": "Po",
    "continent_id": 1,
    "country_id": 107,
    "city_id": 2001,
    "site_name": "Po River - Polesine Station",
    "timezone": "UTC+1",
    "start_latitude": "45.034800",
    "end_latitude": "45.041200",
    "start_longitude": "12.173400",
    "end_longitude": "12.185600",
    "survey_answer": null,
    "custom_field_id": null,
    "external": 0
  },
  {
    "id": 3,
    "site": "Douro River Estuary",
    "is_demo_site": 1,
    "created_at": 1710604800,
    "updated_at": 1710604800,
    "water_body_type": "Estuary",
    "water_body_name": "Douro River",
    "active": 1,
    "deleted": 0,
    "location": "Portugal",
    "main_river": "Douro",
    "continent_id": 1,
    "country_id": 172,
    "city_id": 3001,
    "site_name": "Douro - Porto Estuary",
    "timezone": "UTC",
    "start_latitude": "41.157900",
    "end_latitude": "41.164500",
    "start_longitude": "-8.629100",
    "end_longitude": "-8.612300",
    "survey_answer": null,
    "custom_field_id": null,
    "external": 0
  },
  {
    "id": 4,
    "site": "Danube River Vienna Reach",
    "is_demo_site": 1,
    "created_at": 1710691200,
    "updated_at": 1710691200,
    "water_body_type": "River",
    "water_body_name": "Danube River",
    "active": 1,
    "deleted": 0,
    "location": "Austria",
    "main_river": "Danube",
    "continent_id": 1,
    "country_id": 14,
    "city_id": 4001,
    "site_name": "Danube - Vienna Station",
    "timezone": "UTC+1",
    "start_latitude": "48.208200",
    "end_latitude": "48.214500",
    "start_longitude": "16.373800",
    "end_longitude": "16.389100",
    "survey_answer": null,
    "custom_field_id": null,
    "external": 0
  },
  {
    "id": 5,
    "site": "Seine River Paris Metropolitan Zone",
    "is_demo_site": 0,
    "created_at": 1710777600,
    "updated_at": 1710777600,
    "water_body_type": "River",
    "water_body_name": "Seine River",
    "active": 1,
    "deleted": 0,
    "location": "France",
    "main_river": "Seine",
    "continent_id": 1,
    "country_id": 75,
    "city_id": 5001,
    "site_name": "Seine - Paris Central",
    "timezone": "UTC+1",
    "start_latitude": "48.856600",
    "end_latitude": "48.863400",
    "start_longitude": "2.341200",
    "end_longitude": "2.356800",
    "survey_answer": null,
    "custom_field_id": null,
    "external": 0
  },
  {
    "id": 6,
    "site": "Rhine River - German Reach",
    "is_demo_site": 0,
    "created_at": 1710864000,
    "updated_at": 1710864000,
    "water_body_type": "River",
    "water_body_name": "Rhine River",
    "active": 1,
    "deleted": 0,
    "location": "Germany",
    "main_river": "Rhine",
    "continent_id": 1,
    "country_id": 82,
    "city_id": 6001,
    "site_name": "Rhine - Cologne Station",
    "timezone": "UTC+1",
    "start_latitude": "50.941400",
    "end_latitude": "50.948200",
    "start_longitude": "6.956800",
    "end_longitude": "6.971500",
    "survey_answer": null,
    "custom_field_id": null,
    "external": 0
  },
  {
    "id": 7,
    "site": "Barcelona Coastal Zone",
    "is_demo_site": 0,
    "created_at": 1710950400,
    "updated_at": 1710950400,
    "water_body_type": "Coastal",
    "water_body_name": "Mediterranean Sea",
    "active": 1,
    "deleted": 0,
    "location": "Spain",
    "main_river": null,
    "continent_id": 1,
    "country_id": 204,
    "city_id": 7001,
    "site_name": "Barcelona - Barceloneta Beach",
    "timezone": "UTC+1",
    "start_latitude": "41.380000",
    "end_latitude": "41.383500",
    "start_longitude": "2.190500",
    "end_longitude": "2.197800",
    "survey_answer": null,
    "custom_field_id": null,
    "external": 0
  },
  {
    "id": 8,
    "site": "Amsterdam Canal Ring",
    "is_demo_site": 0,
    "created_at": 1711036800,
    "updated_at": 1711036800,
    "water_body_type": "Canal",
    "water_body_name": "Amsterdam Canals",
    "active": 1,
    "deleted": 0,
    "location": "Netherlands",
    "main_river": null,
    "continent_id": 1,
    "country_id": 156,
    "city_id": 8001,
    "site_name": "Amsterdam - Prinsengracht",
    "timezone": "UTC+1",
    "start_latitude": "52.364800",
    "end_latitude": "52.371200",
    "start_longitude": "4.883400",
    "end_longitude": "4.895600",
    "survey_answer": null,
    "custom_field_id": null,
    "external": 0
  },
  {
    "id": 9,
    "site": "Thames Estuary",
    "is_demo_site": 0,
    "created_at": 1711123200,
    "updated_at": 1711123200,
    "water_body_type": "Estuary",
    "water_body_name": "Thames River",
    "active": 1,
    "deleted": 0,
    "location": "United Kingdom",
    "main_river": "Thames",
    "continent_id": 1,
    "country_id": 229,
    "city_id": 9001,
    "site_name": "Thames - Greenwich Reach",
    "timezone": "UTC",
    "start_latitude": "51.482600",
    "end_latitude": "51.489100",
    "start_longitude": "-0.007800",
    "end_longitude": "0.006700",
    "survey_answer": null,
    "custom_field_id": null,
    "external": 0
  },
  {
    "id": 10,
    "site": "Lake Geneva - Lausanne Basin",
    "is_demo_site": 0,
    "created_at": 1711209600,
    "updated_at": 1711209600,
    "water_body_type": "Lake",
    "water_body_name": "Lake Geneva",
    "active": 1,
    "deleted": 0,
    "location": "Switzerland",
    "main_river": null,
    "continent_id": 1,
    "country_id": 209,
    "city_id": 10001,
    "site_name": "Lake Geneva - Ouchy",
    "timezone": "UTC+1",
    "start_latitude": "46.505600",
    "end_latitude": "46.511200",
    "start_longitude": "6.627800",
    "end_longitude": "6.638900",
    "survey_answer": null,
    "custom_field_id": null,
    "external": 0
  }
]
